{
  "endpoint_name": "airport",
  "method": "POST",
  "result_count": "10",
  "timing": {
    " airport Constructor called": "0.006 (0.006)",
    "  airport Destructor called": "0.006 (0.000)"
  },
  "inputs": {
    "search_string": "s",
    "raw_input": "s - additional params = []"
  },
  "results": [
    {
      "name": "San Francisco International Airport",
      "city": "San Francisco",
      "lat": "37.618999",
      "long": "-122.375000",
      "iata_code": "SFO",
      "iso_region": "US-CA"
    },
    {
      "name": "Shanghai Pudong International Airport",
      "city": "Shanghai",
      "lat": "31.143400",
      "long": "121.805000",
      "iata_code": "PVG",
      "iso_region": "CN-31"
    },
    {
      "name": "Singapore Changi International Airport",
      "city": "Singapore",
      "lat": "1.350190",
      "long": "103.994003",
      "iata_code": "SIN",
      "iso_region": "SG-04"
    },
    {
      "name": "Salt Lake City International Airport",
      "city": "Salt Lake City",
      "lat": "40.788399",
      "long": "-111.977997",
      "iata_code": "SLC",
      "iso_region": "US-UT"
    },
    {
      "name": "San Diego International Airport",
      "city": "San Diego",
      "lat": "32.733601",
      "long": "-117.190002",
      "iata_code": "SAN",
      "iso_region": "US-CA"
    },
    {
      "name": "Seattle Tacoma International Airport",
      "city": "Seattle",
      "lat": "47.449001",
      "long": "-122.308998",
      "iata_code": "SEA",
      "iso_region": "US-WA"
    },
    {
      "name": "John Wayne Airport-Orange County Airport",
      "city": "Santa Ana",
      "lat": "33.675701",
      "long": "-117.867996",
      "iata_code": "SNA",
      "iso_region": "US-CA"
    },
    {
      "name": "Lambert St Louis International Airport",
      "city": "St Louis",
      "lat": "38.748699",
      "long": "-90.370003",
      "iata_code": "STL",
      "iso_region": "US-MO"
    },
    {
      "name": "Luis Munoz Marin International Airport",
      "city": "San Juan",
      "lat": "18.439400",
      "long": "-66.001801",
      "iata_code": "SJU",
      "iso_region": "PR-U-A"
    },
    {
      "name": "Norman Y. Mineta San Jose International Airport",
      "city": "San Jose",
      "lat": "37.362598",
      "long": "-121.929001",
      "iata_code": "SJC",
      "iso_region": "US-CA"
    }
  ]
}